Dt-Proce;Dt-Inicio;Dt-Fim;Nome;Tarifa;Cidade;Identifica;Avaliações;Nota;Estrelas;Propriedade;Funcionários;Comodidades;Limpeza;Conforto;Relação Qualidade/Preço;Localização;Wifi;Travel-Proud;Sustentabilidade;Tipo;Latitude;Longitude
04/03/2026;22/08/2026;23/08/2026;Saionara Hotel;R$ 375;Zona Norte, Rio de Janeiro;TESTE;0;8,5;3;Hotel;9,1;8,3;8,7;8,3;8,4;8,4;7,0;N;N;Hotel;-22.91144146327388;-43.213581740856114
04/03/2026;22/08/2026;23/08/2026;B&B HOTEL Santos Dumont;R$ 230;Centro, Rio de Janeiro;TESTE;0;8,6;3;Hotel;8,9;8,5;8,7;8,6;9,0;8,3;8,1;S;S;Hotel;-22.91070151555716;-43.17109555006027
04/03/2026;22/08/2026;23/08/2026;ibis Rio de Janeiro Centro;R$ 293;Centro, Rio de Janeiro;TESTE;0;7,6;3;Hotel;8,4;7,4;7,7;7,7;8,0;7,3;7,4;S;N;Hotel;-22.90738837792571;-43.181891441345215
04/03/2026;22/08/2026;23/08/2026;ibis Rio Porto Atlantico;R$ 217;Porto Maravilha, Rio de Janeiro (Porto Maravilha);TESTE;0;8,1;3;Hotel;8,5;8,1;8,3;8,3;8,2;7,9;7,9;S;N;Hotel;-22.897585349220993;-43.20370444292223
04/03/2026;22/08/2026;23/08/2026;ibis budget Rio de Janeiro Centro;R$ 230;Centro, Rio de Janeiro;TESTE;0;7,3;2;Hotel;8,3;7,0;7,5;7,2;8,0;7,2;7,3;S;N;Hotel;-22.90772;-43.181746
